{"p1_i40": {"name": "Churrascaria Plataforma", "zip": "10019-7391", "longitude": "-73.98765", "latitude": "40.761997", "street": "316 W 49th St", "phone": "+1 212-245-0505", "neighborhood": "Midtown"}, "p1_i179": {"name": "Shake Shack Theater District", "zip": "10036", "longitude": "-73.989235", "latitude": "40.75847", "street": "691 8th Avenue", "phone": "+1 646-435-0135", "neighborhood": "Midtown"}, "p1_i108": {"name": "Connolly's Pub & Restaurant", "zip": "10036-4004", "longitude": "-73.98363", "latitude": "40.757336", "street": "121 West 45th Street", "phone": "+1 212-597-5126", "neighborhood": "Midtown"}, "p1_i104": {"name": "Fiat Cafe", "zip": "10012-4562", "longitude": "-73.99554", "latitude": "40.721493", "street": "203 Mott St", "phone": "+1 212-969-1809", "neighborhood": "Nolita"}, "p1_i42": {"name": "Lupa", "zip": "10012-2575", "longitude": "-74.00022", "latitude": "40.727604", "street": "170 Thompson St", "phone": "+1 212-982-5089", "neighborhood": "Greenwich Village"}, "p1_i6": {"name": "Joe's Pizza", "zip": "10003", "longitude": "-73.98725", "latitude": "40.73341", "street": "150 East 14th Street", "phone": "+1 212-388-9474", "neighborhood": ""}, "p1_i128": {"name": "Broadway Bagel", "zip": "10025-5023", "longitude": "-73.969345", "latitude": "40.797955", "street": "2658 Broadway", "phone": "", "neighborhood": "Upper West Side"}, "p1_i85": {"name": "Bistro Les Amis", "zip": "10012-3703", "longitude": "-74.00266", "latitude": "40.72485", "street": "180 Spring St", "phone": "+1 212-226-8645", "neighborhood": "SoHo"}, "p1_i123": {"name": "Hell's Kitchen", "zip": "10019-8419", "longitude": "-73.9883", "latitude": "40.76382", "street": "754 9th Ave", "phone": "+1 212-977-1588", "neighborhood": "Midtown"}, "p1_i75": {"name": "Tommy Bahama Restaurant & Bar", "zip": "10176-0001", "longitude": "-73.97894", "latitude": "40.755325", "street": "551 5th Ave", "phone": "+1 212-368-1837", "neighborhood": "Midtown"}, "p1_i143": {"name": "Circo", "zip": "10019-5305", "longitude": "-73.9792", "latitude": "40.763374", "street": "120 W 55th St", "phone": "+1 212-265-3636", "neighborhood": "Midtown"}, "p1_i183": {"name": "Buenos Aires", "zip": "10009", "longitude": "-73.98309", "latitude": "40.725227", "street": "513 E 6th St", "phone": "+1 212-228-2775", "neighborhood": "East Village"}, "p1_i95": {"name": "Ben & Jack's Steak House", "zip": "10016-6516", "longitude": "-73.98713", "latitude": "40.744877", "street": "255 5th Ave", "phone": "+1 212-532-7600", "neighborhood": "Diana of Little Chef, Little Kitchen"}, "p1_i33": {"name": "Dafni Greek Taverna", "zip": "10036-6930", "longitude": "-73.990845", "latitude": "40.757957", "street": "325 W 42nd St", "phone": "+1 212-315-1010", "neighborhood": "Midtown"}, "p1_i167": {"name": "44 & X", "zip": "10036", "longitude": "-73.99455", "latitude": "40.761074", "street": "622 10th Avenue", "phone": "+1 212-977-1170", "neighborhood": "Midtown"}, "p1_i105": {"name": "Cowgirl Seahorse", "zip": "10038-1716", "longitude": "-74.00033", "latitude": "40.708435", "street": "259 Front St", "phone": "+1 212-608-7873", "neighborhood": "Financial District"}, "p1_i149": {"name": "Apotheke", "zip": "", "longitude": "-73.99818", "latitude": "40.71434", "street": "9 Doyers St", "phone": "", "neighborhood": "Chinatown"}, "p1_i16": {"name": "Junoon Restaurant", "zip": "10010", "longitude": "-73.99089", "latitude": "40.74311", "street": "27 West 24th St.", "phone": "+1 212-490-2100", "neighborhood": "Flatiron"}, "p1_i27": {"name": "Hundred Acres", "zip": "10012", "longitude": "-74.003", "latitude": "40.72704", "street": "38 MacDougal Street", "phone": "+1 212-475-7500", "neighborhood": "SoHo"}, "p1_i144": {"name": "West Bank Cafe", "zip": "10036-6808", "longitude": "-73.99311", "latitude": "40.75866", "street": "407 W 42nd St", "phone": "+1 212-695-6909", "neighborhood": ""}, "p1_i106": {"name": "Marcony", "zip": "10016", "longitude": "-73.98118", "latitude": "40.74487", "street": "184 Lexington Avenue", "phone": "+1 646-837-6020", "neighborhood": "Midtown"}, "p1_i194": {"name": "Harry's Cafe & Steak", "zip": "10004", "longitude": "-74.009705", "latitude": "40.704525", "street": "1 Hanover Sq", "phone": "+1 212-785-9200", "neighborhood": "Financial District"}, "p1_i13": {"name": "Schiller's Liquor Bar", "zip": "10002-2402", "longitude": "-73.986824", "latitude": "40.719624", "street": "131 Rivington St", "phone": "+1 212-260-4555", "neighborhood": "Lower East Side"}, "p1_i43": {"name": "Santina", "zip": "10014-1406", "longitude": "-74.00804", "latitude": "40.739655", "street": "820 Washington St", "phone": "+1 212-254-3000", "neighborhood": "West Village"}, "p1_i56": {"name": "Nick's", "zip": "10128-5601", "longitude": "-73.94781", "latitude": "40.78272", "street": "1814 2ND Ave", "phone": "+1 212-987-5700", "neighborhood": "Upper East Side"}, "p1_i15": {"name": "Wolfgang's Steakhouse", "zip": "10036", "longitude": "-73.989235", "latitude": "40.75603", "street": "250 West 41st Street", "phone": "+1 212-921-3720", "neighborhood": "Midtown"}, "p1_i195": {"name": "North Square", "zip": "10011", "longitude": "-73.99857", "latitude": "40.732376", "street": "103 Waverly Pl", "phone": "12122541200", "neighborhood": "Greenwich Village"}, "p1_i109": {"name": "Lupulo", "zip": "10001-4101", "longitude": "-73.990105", "latitude": "40.746723", "street": "835 Avenue of the Americas", "phone": "+1 212-290-7600", "neighborhood": "Chelsea"}, "p1_i91": {"name": "Basta Pasta", "zip": "10011-5503", "longitude": "-73.994026", "latitude": "40.738823", "street": "37 W 17th St", "phone": "+1 212-366-0888", "neighborhood": "Flatiron"}, "p1_i59": {"name": "P.J. Clarke's on the Hudson", "zip": "10281", "longitude": "-74.0163", "latitude": "40.713398", "street": "4 World Financial Center", "phone": "+1 212-285-1500", "neighborhood": "Financial District"}, "p1_i77": {"name": "Aunt Jake's NYC", "zip": "10013", "longitude": "-73.99764", "latitude": "40.71907", "street": "151 Mulberry Street", "phone": "16468580470", "neighborhood": "Little Italy"}, "p1_i112": {"name": "Jeffrey's", "zip": "10014-3549", "longitude": "-74.001335", "latitude": "40.733776", "street": "172 Waverly Pl", "phone": "+1 646-398-7630", "neighborhood": "West Village"}, "p1_i61": {"name": "ruchi", "zip": "10006-1530", "longitude": "-74.01304", "latitude": "40.709896", "street": "120 Cedar St", "phone": "+1 212-227-8455", "neighborhood": "Financial District"}, "p1_i28": {"name": "Angel's Share", "zip": "10003", "longitude": "-73.989296", "latitude": "40.730118", "street": "8 Stuyvesant St", "phone": "+1 212-777-5415", "neighborhood": "East Village"}, "p1_i117": {"name": "Zengo", "zip": "10017-6707", "longitude": "-73.97544", "latitude": "40.74972", "street": "622 3rd Ave", "phone": "+1 212-808-8110", "neighborhood": "Midtown"}, "p1_i96": {"name": "Pio Pio", "zip": "10016-4847", "longitude": "-73.97746", "latitude": "40.745556", "street": "210 E 34th St", "phone": "+1 212-481-0034", "neighborhood": "Midtown"}, "p1_i197": {"name": "Giuseppe's Pizza", "zip": "10016-0935", "longitude": "-73.97704", "latitude": "40.74969", "street": "341 Lexington Ave", "phone": "+1 212-683-4721", "neighborhood": ""}, "p1_i9": {"name": "Famous Famiglia", "zip": "10036-7114", "longitude": "-73.98918", "latitude": "40.75821", "street": "686 8th Ave", "phone": "+1 212-382-3030", "neighborhood": "Midtown"}, "p1_i74": {"name": "Bareburger", "zip": "10038", "longitude": "-74.00623", "latitude": "40.709976", "street": "155 William St", "phone": "16466570388", "neighborhood": "Financial District"}, "p1_i124": {"name": "Hale and Hearty Soups -- 56th Street", "zip": "10019-3902", "longitude": "-73.97667", "latitude": "40.76339", "street": "55 W 56th St", "phone": "+1 212-245-9200", "neighborhood": "Midtown"}, "p1_i138": {"name": "P J Moran's", "zip": "10017-1027", "longitude": "-73.977585", "latitude": "40.75723", "street": "3 E 48th St Frnt 1", "phone": "+1 212-753-6440", "neighborhood": "Midtown"}, "p1_i135": {"name": "Le Baratin", "zip": "", "longitude": "-74.0011", "latitude": "40.73654", "street": "Greenwich Avenue", "phone": "+1 213-555-1212", "neighborhood": "West Village"}, "p1_i189": {"name": "Bar Ciccio Alimentari", "zip": "10013-1222", "longitude": "-74.00343", "latitude": "40.72632", "street": "190 Avenue of the Americas", "phone": "+1 646-476-9498", "neighborhood": "SoHo"}, "p1_i164": {"name": "Tarallucci e Vino", "zip": "10003", "longitude": "-73.99069", "latitude": "40.73814", "street": "15 E 18th St", "phone": "+1 212-228-5400", "neighborhood": "Flatiron"}, "p1_i58": {"name": "Morso", "zip": "10022-2396", "longitude": "-73.96049", "latitude": "40.75878", "street": "420 E 59th St", "phone": "+1 212-759-2706", "neighborhood": "Midtown"}, "p1_i68": {"name": "Vic's", "zip": "10012-1178", "longitude": "-73.9932", "latitude": "40.72714", "street": "31 Great Jones St", "phone": "+1 212-253-5700", "neighborhood": ""}, "p1_i107": {"name": "EJ's Luncheonette", "zip": "10028", "longitude": "-73.96009", "latitude": "40.770466", "street": "1271 Third Avenue", "phone": "+1 212-873-3444", "neighborhood": "Upper East Side"}, "p1_i196": {"name": "Wondee Siam I", "zip": "10019-5639", "longitude": "-73.9878", "latitude": "40.765034", "street": "792 9th Ave", "phone": "+1 212-459-9057", "neighborhood": "Midtown"}, "p1_i51": {"name": "Crisp\u00edn\u2019s", "zip": "10019-5001", "longitude": "-73.99126", "latitude": "40.766376", "street": "764 10th Ave", "phone": "+1 212-586-0888", "neighborhood": "Midtown"}, "p1_i82": {"name": "La Loteria", "zip": "10014-3938", "longitude": "-74.00445", "latitude": "40.730736", "street": "29 7th Ave S", "phone": "+1 212-858-9096", "neighborhood": "West Village"}, "p1_i54": {"name": "Village Taverna", "zip": "10003-4505", "longitude": "-73.9928", "latitude": "40.73341", "street": "81 University Pl", "phone": "+1 212-982-3457", "neighborhood": "Greenwich Village"}, "p1_i70": {"name": "Cafe Clover", "zip": "10014-4734", "longitude": "-74.00233", "latitude": "40.72957", "street": "10 Downing St", "phone": "+1 212-675-4350", "neighborhood": "West Village"}, "p1_i2": {"name": "Luce Restaurant & Enoteca", "zip": "10023-5003", "longitude": "-73.98203", "latitude": "40.77594", "street": "2014 Broadway", "phone": "+1 212-724-1400", "neighborhood": "Upper West Side"}, "p1_i11": {"name": "McDonald's", "zip": "10036", "longitude": "-73.984985", "latitude": "40.75894", "street": "1560 Broadway", "phone": "+1 212-921-8900", "neighborhood": "Midtown"}, "p1_i17": {"name": "Da Mikele", "zip": "10013-3414", "longitude": "-74.00481", "latitude": "40.71847", "street": "275 Church St", "phone": "+1 212-925-8800", "neighborhood": "TriBeCa"}, "p1_i150": {"name": "Puff Cha", "zip": "10019", "longitude": "-73.99128", "latitude": "40.764656", "street": "457 50 St", "phone": "+1 646-682-7768", "neighborhood": "Midtown"}, "p1_i102": {"name": "Muldoon's Irish Bar & Restaurant", "zip": "10017-4005", "longitude": "-73.97403", "latitude": "40.7519", "street": "692 3rd Ave", "phone": "+1 212-599-2750", "neighborhood": "Midtown"}, "p1_i157": {"name": "Sons of Essex", "zip": "10002-2380", "longitude": "-73.98759", "latitude": "40.720196", "street": "133 Essex St", "phone": "+1 212-674-7100", "neighborhood": "Lower East Side"}, "p1_i166": {"name": "Tataki Japanese Restaurant", "zip": "10013-2208", "longitude": "-74.00524", "latitude": "40.72045", "street": "3 Lispenard St", "phone": "+1 212-965-0975", "neighborhood": "TriBeCa"}, "p1_i158": {"name": "Gaetana's", "zip": "10014", "longitude": "-74.00758", "latitude": "40.732845", "street": "143 Christopher St", "phone": "+1 212-675-3913", "neighborhood": "West Village"}, "p1_i93": {"name": "An Choi", "zip": "10002-4564", "longitude": "-73.99042", "latitude": "40.71798", "street": "85 Orchard St", "phone": "+1 212-226-3700", "neighborhood": "Lower East Side"}, "p1_i65": {"name": "Chelsea Square Restaurant", "zip": "10011", "longitude": "-74.001335", "latitude": "40.746513", "street": "368 W 23rd St #1", "phone": "+1 212-691-5400", "neighborhood": "Chelsea"}, "p1_i113": {"name": "Murals on 54 Restaurant", "zip": "10019", "longitude": "-73.97778", "latitude": "40.762188", "street": "65 W 54th St", "phone": "+1 212-314-7700", "neighborhood": ""}, "p1_i168": {"name": "Blue Seafood Bar", "zip": "10019-4451", "longitude": "-73.98615", "latitude": "40.76685", "street": "856 9th Ave", "phone": "12127577511", "neighborhood": "Midtown"}, "p1_i115": {"name": "Luke's Lobster", "zip": "10010-2002", "longitude": "-73.98936", "latitude": "40.743145", "street": "5 W 25th St", "phone": "+1 646-657-0747", "neighborhood": "Flatiron"}, "p1_i152": {"name": "Reade Street Pub & Kitchen", "zip": "10013-3826", "longitude": "-74.00963", "latitude": "40.71639", "street": "135 Reade St", "phone": "+1 212-227-2295", "neighborhood": "TriBeCa"}, "p1_i31": {"name": "Torishin", "zip": "10019-5940", "longitude": "-73.987206", "latitude": "40.764774", "street": "362 W 53rd St", "phone": "+1 212-757-0108", "neighborhood": "Midtown"}, "p1_i125": {"name": "Till & Sprocket", "zip": "10001-4005", "longitude": "-73.99163", "latitude": "40.74802", "street": "140 W 30th St", "phone": "+1 212-239-0570", "neighborhood": "Chelsea"}, "p1_i21": {"name": "Noodle bar", "zip": "10014", "longitude": "-74.00271", "latitude": "40.73014", "street": "26 Carmine St", "phone": "+1 212-524-6800", "neighborhood": "West Village"}, "p1_i111": {"name": "Saffron Indian Cuisine", "zip": "10023-8403", "longitude": "-73.97761", "latitude": "40.77959", "street": "320 Columbus Ave", "phone": "+1 212-724-6363", "neighborhood": "Upper West Side"}, "p1_i99": {"name": "Totto Ramen", "zip": "10022-6201", "longitude": "-73.96804", "latitude": "40.756306", "street": "248 E 52nd St", "phone": "+1 212-582-0052", "neighborhood": "Midtown"}, "p1_i165": {"name": "Yefsi Estiatorio", "zip": "10075-8842", "longitude": "-73.95085", "latitude": "40.77109", "street": "1481 York Ave", "phone": "+1 212-535-0293", "neighborhood": "Upper East Side"}, "p1_i83": {"name": "Talent Thai Kitchen", "zip": "10016", "longitude": "-73.97768", "latitude": "40.74525", "street": "210 East 34th Street", "phone": "+1 212-725-8888", "neighborhood": "Midtown"}, "p1_i14": {"name": "Kahve new york", "zip": "10019-6374", "longitude": "-73.9882", "latitude": "40.764503", "street": "774 9th Ave", "phone": "+1 212-256-0207", "neighborhood": "Midtown"}, "p1_i114": {"name": "Sammy's Roumanian Steakhouse", "zip": "10002-2836", "longitude": "-73.992615", "latitude": "40.720257", "street": "157 Chrystie St", "phone": "+1 212-673-0330", "neighborhood": ""}, "p1_i145": {"name": "Company Restaurant", "zip": "10001", "longitude": "-74.00041", "latitude": "40.74745", "street": "230 Ninth Avenue", "phone": "+1 212-243-1105", "neighborhood": "Chelsea"}, "p1_i174": {"name": "Carma Asian Tapas", "zip": "10014-4432", "longitude": "-74.0032", "latitude": "40.72999", "street": "38 Carmine St", "phone": "+1 212-243-0388", "neighborhood": "West Village"}, "p1_i110": {"name": "Lobby Lounge", "zip": "10023", "longitude": "-73.98222", "latitude": "40.76848", "street": "80 Columbus Circle", "phone": "+1 212-805-8800", "neighborhood": "Midtown"}, "p1_i139": {"name": "Kopitiam", "zip": "10002-6105", "longitude": "-73.99157", "latitude": "40.71508", "street": "51B Canal St", "phone": "+1 646-894-7081", "neighborhood": "Chinatown"}, "p1_i148": {"name": "Fine & Schapiro", "zip": "10023", "longitude": "-73.98035", "latitude": "40.77776", "street": "138 W 72nd Street", "phone": "+1 212-877-2874", "neighborhood": "Upper West Side"}, "p1_i146": {"name": "Socarrat Paella Bar - Nolita", "zip": "10012-3328", "longitude": "-73.99504", "latitude": "40.72448", "street": "284 Mulberry St", "phone": "+1 212-219-0101", "neighborhood": "Nolita"}, "p1_i159": {"name": "Pergola", "zip": "10001-4201", "longitude": "-73.98959", "latitude": "40.7454", "street": "36 W 28th St", "phone": "+1 212-679-4842", "neighborhood": ""}, "p1_i137": {"name": "Proper West", "zip": "10018-3808", "longitude": "-73.98475", "latitude": "40.75238", "street": "54 W 39th St", "phone": "+1 212-997-9000", "neighborhood": "Midtown"}, "p1_i34": {"name": "Bettola", "zip": "10024-6255", "longitude": "-73.97801", "latitude": "40.78357", "street": "412 Amsterdam Ave", "phone": "+1 212-787-1660", "neighborhood": "Upper West Side"}, "p1_i153": {"name": "Pinto Restaurant", "zip": "10014-4279", "longitude": "-74.00545", "latitude": "40.73303", "street": "118 Christopher St", "phone": "+1 212-366-5455", "neighborhood": "West Village"}, "p1_i62": {"name": "Resto", "zip": "10016", "longitude": "-73.98272", "latitude": "40.74381", "street": "111 East 29th Street", "phone": "+1 212-685-5585", "neighborhood": ""}, "p1_i87": {"name": "The Upsider", "zip": "10022-4966", "longitude": "-73.96679", "latitude": "40.75679", "street": "1004 2nd Ave", "phone": "+1 646-726-4760", "neighborhood": "Midtown"}, "p1_i131": {"name": "Suprema Provisions", "zip": "10014-3427", "longitude": "-74.00371", "latitude": "40.73266", "street": "305 Bleecker St", "phone": "+1 646-964-4994", "neighborhood": "West Village"}, "p1_i177": {"name": "Wine Escape", "zip": "10036-4404", "longitude": "-73.99214", "latitude": "40.76004", "street": "405 W 44th St", "phone": "212262700", "neighborhood": "Midtown"}, "p1_i101": {"name": "Girello", "zip": "10013-5718", "longitude": "-74.00703", "latitude": "40.71959", "street": "11 Varick St", "phone": "+1 212-941-0110", "neighborhood": "TriBeCa"}, "p1_i0": {"name": "Chipotle Mexican Grill", "zip": "10036-3731", "longitude": "-73.9916", "latitude": "40.75954", "street": "620 9th Ave", "phone": "+1 212-247-3275", "neighborhood": "Midtown"}, "p1_i72": {"name": "Hale and Hearty Soups", "zip": "10001-5006", "longitude": "-73.99241", "latitude": "40.74805", "street": "345 7th Ave", "phone": "+1 212-971-0605", "neighborhood": "Chelsea"}, "p1_i94": {"name": "Roti", "zip": "10038-4818", "longitude": "-74.00722", "latitude": "40.70672", "street": "100 Maiden Ln", "phone": "+1 646-494-3359", "neighborhood": "Financial District"}, "p1_i103": {"name": "Hanci Turkish Cuisine", "zip": "10019", "longitude": "-73.9887", "latitude": "40.76848", "street": "854 10th Ave", "phone": "+1 212-707-8144", "neighborhood": "Midtown"}, "p1_i187": {"name": "Canteen 82", "zip": "10024-5137", "longitude": "-73.97354", "latitude": "40.78406", "street": "467 Columbus Ave", "phone": "+1 212-595-4300", "neighborhood": "Upper West Side"}, "p1_i26": {"name": "Petaluma", "zip": "10021-4434", "longitude": "-73.9553", "latitude": "40.76823", "street": "1356 1st Ave", "phone": "+1 212-772-8800", "neighborhood": "Upper East Side"}, "p1_i173": {"name": "Don Pepe Pizza", "zip": "10121-0101", "longitude": "-73.992165", "latitude": "40.749973", "street": "2 Penn Plz", "phone": "+1 212-967-4385", "neighborhood": ""}, "p1_i118": {"name": "Entwine", "zip": "10014-1760", "longitude": "-74.00796", "latitude": "40.7374", "street": "765 Washington St", "phone": "+1 212-727-8765", "neighborhood": "West Village"}, "p1_i122": {"name": "Cafe Today", "zip": "10022-6102", "longitude": "-73.97127", "latitude": "40.75719", "street": "575 Lexington Ave", "phone": "+1 212-308-3206", "neighborhood": ""}, "p1_i92": {"name": "Thursday Kitchen", "zip": "10009", "longitude": "-73.9838", "latitude": "40.7275", "street": "424 E 9th St.", "phone": "+1 646-755-8088", "neighborhood": "East Village"}, "p1_i64": {"name": "Greek Eats", "zip": "10065-6314", "longitude": "-73.95877", "latitude": "40.76432", "street": "1229 1st Ave", "phone": "+1 212-861-4976", "neighborhood": "Upper East Side"}, "p1_i136": {"name": "Minar", "zip": "10036-8506", "longitude": "-73.98403", "latitude": "40.75789", "street": "138 W 46th St", "phone": "", "neighborhood": "Midtown"}, "p1_i38": {"name": "Subway", "zip": "10019-6702", "longitude": "-73.98477", "latitude": "40.76148", "street": "214 W 50th St", "phone": "+1 212-265-1822", "neighborhood": "Midtown"}, "p1_i30": {"name": "Tung Thong Thai", "zip": "10032-3902", "longitude": "-73.93857", "latitude": "40.84157", "street": "561 W. 169th St.", "phone": "+1 212-795-5995", "neighborhood": ""}, "p1_i50": {"name": "Olive's", "zip": "10012-3103", "longitude": "-73.99983", "latitude": "40.72525", "street": "120 Prince St", "phone": "+1 212-941-0111", "neighborhood": "SoHo"}, "p1_i133": {"name": "Dan and John's Wings", "zip": "10003-2928", "longitude": "-73.98537", "latitude": "40.72782", "street": "135 1st Ave", "phone": "+1 212-858-9935", "neighborhood": "East Village"}, "p1_i185": {"name": "Gonzalez y Gonzalez", "zip": "10012-1502", "longitude": "-73.99705", "latitude": "40.72631", "street": "192 Mercer St", "phone": "+1 212-473-7878", "neighborhood": "Greenwich Village"}, "p1_i162": {"name": "Moe's Southwest Grill", "zip": "10018-5408", "longitude": "-73.985794", "latitude": "40.752632", "street": "1029A Avenue of the Americas", "phone": "+1 212-575-7711", "neighborhood": "Midtown"}, "p1_i12": {"name": "El Mate", "zip": "11231-3922", "longitude": "-73.9997", "latitude": "40.67508", "street": "550 Court St", "phone": "+1 718-222-1102", "neighborhood": ""}, "p1_i48": {"name": "Kosaka", "zip": "10011-7767", "longitude": "-74.00141", "latitude": "40.73828", "street": "220 W 13th St", "phone": "2127271709", "neighborhood": "West Village"}, "p1_i141": {"name": "Sushi Para", "zip": "10028-1915", "longitude": "-73.95534", "latitude": "40.77646", "street": "1461 3rd Ave", "phone": "+1 212-585-0300", "neighborhood": ""}, "p1_i44": {"name": "Louie and Chan", "zip": "10002-3762", "longitude": "-73.99238", "latitude": "40.71869", "street": "303 Broome St", "phone": "+1 212-837-2816", "neighborhood": ""}, "p1_i10": {"name": "Bespoke Kitchen", "zip": "10014-1867", "longitude": "-74.00538", "latitude": "40.737568", "street": "615 1/2 Hudson St", "phone": "2129893155", "neighborhood": "West Village"}, "p1_i180": {"name": "La Vie En Szechuan", "zip": "10016-5013", "longitude": "-73.98432", "latitude": "40.74722", "street": "14 E 33rd St", "phone": "+1 212-683-2779", "neighborhood": "Midtown"}, "p1_i3": {"name": "Nana Sushi", "zip": "10016-4703", "longitude": "-73.97764", "latitude": "40.74583", "street": "511 3rd Ave", "phone": "+1 212-683-1088", "neighborhood": "Midtown"}, "p1_i171": {"name": "Bunn", "zip": "10001-3819", "longitude": "-73.98631", "latitude": "40.74761", "street": "11 W 32nd St", "phone": "+1 917-304-0058", "neighborhood": "Midtown"}, "p1_i66": {"name": "Luna Pizza", "zip": "10038-1144", "longitude": "-73.998856", "latitude": "40.713097", "street": "225 Park Row", "phone": "+1 212-385-8118", "neighborhood": ""}, "p1_i88": {"name": "Lanza Restaurant", "zip": "10009-4592", "longitude": "-73.98399", "latitude": "40.72887", "street": "168 1st Ave", "phone": "+1 212-674-7014", "neighborhood": "East Village"}, "p1_i46": {"name": "Variety Cafe", "zip": "10036-1703", "longitude": "-73.98026", "latitude": "40.75809", "street": "48 W 48th St", "phone": "+1 212-302-9888", "neighborhood": "Midtown"}, "p1_i181": {"name": "La Preciosa", "zip": "10029-1390", "longitude": "-73.94081", "latitude": "40.79859", "street": "163 E 116th St", "phone": "+1 212-369-3921", "neighborhood": ""}, "p1_i176": {"name": "New York Sal's Pizza", "zip": "10019-7110", "longitude": "-73.99212", "latitude": "40.76373", "street": "696 10th Ave", "phone": "+1 212-247-3628", "neighborhood": "Midtown"}, "p1_i132": {"name": "Tenzan II", "zip": "10128-3201", "longitude": "-73.9501", "latitude": "40.77958", "street": "1714 2nd Ave", "phone": "+1 212-369-3600", "neighborhood": "Upper East Side"}, "p1_i184": {"name": "The Folly", "zip": "10012-2593", "longitude": "-73.99996", "latitude": "40.72731", "street": "92 W Houston St", "phone": "+1 646-726-4740", "neighborhood": "Greenwich Village"}, "p1_i86": {"name": "Bisousciao", "zip": "10014-4438", "longitude": "-74.00252", "latitude": "40.7306", "street": "235 Bleecker St", "phone": "+1 212-675-6366", "neighborhood": "West Village"}, "p1_i175": {"name": "Luscious Thai", "zip": "10065-8728", "longitude": "-73.96171", "latitude": "40.76053", "street": "1099 1st Ave", "phone": "+1 212-813-1188", "neighborhood": "Upper East Side"}, "p1_i32": {"name": "Celsius", "zip": "10018", "longitude": "-73.98412", "latitude": "40.75484", "street": "42nd Street between 5th and 6th", "phone": "+1 212-792-9603", "neighborhood": "Midtown"}, "p1_i76": {"name": "Sweetgreen", "zip": "10023-1753", "longitude": "-73.98024", "latitude": "40.78023", "street": "311 Amsterdam Ave", "phone": "", "neighborhood": "Upper West Side"}, "p1_i18": {"name": "Khushboo Indian Restaurant", "zip": "10002-1713", "longitude": "-73.98381", "latitude": "40.72103", "street": "6 Clinton St", "phone": "+1 212-533-2828", "neighborhood": "Lower East Side"}, "p1_i191": {"name": "Murphy's Law", "zip": "10021-5316", "longitude": "-73.95577", "latitude": "40.76599", "street": "417 E 70th St", "phone": "+1 212-628-3724", "neighborhood": "Upper East Side"}, "p1_i20": {"name": "Indian Tandoor-Oven Restaurant", "zip": "10028-1923", "longitude": "-73.95567", "latitude": "40.77709", "street": "175 E 83rd St", "phone": "+1 212-628-3000", "neighborhood": "Upper East Side"}, "p1_i156": {"name": "Tamba Indian Grill and Bar", "zip": "10016", "longitude": "-73.98248", "latitude": "40.74213", "street": "103 Lexington Avenue", "phone": "+1 212-481-9100", "neighborhood": ""}, "p1_i81": {"name": "Savour Sichuan", "zip": "10018-3614", "longitude": "-73.98614", "latitude": "40.75311", "street": "108 W 39th St", "phone": "+1 212-221-7237", "neighborhood": "Midtown"}, "p1_i84": {"name": "Firehouse", "zip": "10024-3404", "longitude": "-73.97272", "latitude": "40.786076", "street": "522 Columbus Ave", "phone": "+1 212-595-3139", "neighborhood": "Upper West Side"}, "p1_i97": {"name": "Umami Shoppu", "zip": "10011-8420", "longitude": "-73.99731", "latitude": "40.736954", "street": "513 Avenue of the Americas", "phone": "+1 212-229-9991", "neighborhood": "West Village"}, "p1_i1": {"name": "Brooklyneer", "zip": "", "longitude": "-74.00458", "latitude": "40.72872", "street": "220 West Houston Street", "phone": "+1 646-692-4911", "neighborhood": "West Village"}, "p1_i39": {"name": "Shoga Sushi & Oyster Bar", "zip": "10128-4935", "longitude": "-73.95059", "latitude": "40.77899", "street": "300 E 88th St", "phone": "+1 212-289-4635", "neighborhood": "Upper East Side"}, "p1_i121": {"name": "Mae Mae Cafe", "zip": "10013-1102", "longitude": "-74.00701", "latitude": "40.72646", "street": "68 Vandam St", "phone": "+1 212-924-5109", "neighborhood": ""}, "p1_i35": {"name": "Essex Taqueria", "zip": "10002-3277", "longitude": "-73.98777", "latitude": "40.71972", "street": "123 Essex St", "phone": "+1 212-260-8226", "neighborhood": "Lower East Side"}, "p1_i100": {"name": "Lunetta", "zip": "10065-7881", "longitude": "-73.95984", "latitude": "40.76254", "street": "1162 1st Ave", "phone": "+1 212-758-8100", "neighborhood": "Upper East Side"}, "p1_i192": {"name": "Kung Fu Little Steamed Buns", "zip": "10022-4513", "longitude": "-73.969696", "latitude": "40.759315", "street": "140 E 55th St", "phone": "+1 212-804-8556", "neighborhood": "Midtown"}, "p1_i80": {"name": "Chinatown East", "zip": "10128-3608", "longitude": "-73.95126", "latitude": "40.78286", "street": "1650 3rd Ave", "phone": "+1 212-987-3500", "neighborhood": "Upper East Side"}, "p1_i49": {"name": "Dig Inn Seasonal Market", "zip": "10014-4504", "longitude": "-74.00708", "latitude": "40.72767", "street": "350 Hudson St", "phone": "+1 917-720-1205", "neighborhood": ""}, "p1_i36": {"name": "Cafe Del Sol", "zip": "", "longitude": "-73.98986", "latitude": "40.752403", "street": "480 7th Avenue", "phone": "+1 212-643-2926", "neighborhood": "Midtown"}, "p1_i23": {"name": "Alin Sushi", "zip": "10002-5042", "longitude": "-73.99503", "latitude": "40.71651", "street": "55 Chrystie St # 59", "phone": "+1 646-922-7282", "neighborhood": ""}, "p1_i188": {"name": "C & L Dumpling House", "zip": "10002-5023", "longitude": "-73.9946", "latitude": "40.71728", "street": "77 Chrystie St", "phone": "+1 212-219-8850", "neighborhood": "Chinatown"}, "p1_i67": {"name": "Village Pizza", "zip": "10014-1201", "longitude": "-74.00321", "latitude": "40.73927", "street": "65 8th Ave", "phone": "+1 212-243-4367", "neighborhood": "West Village"}, "p1_i73": {"name": "Goemon", "zip": "10012-4612", "longitude": "-73.99509", "latitude": "40.72083", "street": "29 Kenmare St", "phone": "+1 212-226-1262", "neighborhood": "Nolita"}, "p1_i5": {"name": "Red Chili Indian Cafe", "zip": "10026-2591", "longitude": "-73.95059", "latitude": "40.80209", "street": "108 W 116th St", "phone": "+1 646-964-5916", "neighborhood": "Harlem"}, "p1_i19": {"name": "Cest Bon Cafe", "zip": "10017", "longitude": "-73.96989", "latitude": "40.76094", "street": "120 E 57th St", "phone": "+1 212-319-6680", "neighborhood": "Midtown"}, "p1_i41": {"name": "JR Sushi", "zip": "10007-1020", "longitude": "-74.00961", "latitude": "40.71528", "street": "86A W Broadway", "phone": "+1 212-233-8338", "neighborhood": "TriBeCa"}, "p1_i142": {"name": "Euro Diner", "zip": "10036-7001", "longitude": "-73.98778", "latitude": "40.75944", "street": "738 8th Ave", "phone": "+1 212-391-0603", "neighborhood": "Midtown"}, "p1_i52": {"name": "Clarke's Standard", "zip": "", "longitude": "-73.98987", "latitude": "40.73751", "street": "Broadway, 870", "phone": "+1 212-529-9100", "neighborhood": "Flatiron"}, "p1_i89": {"name": "Bei Jing Chinese Foods", "zip": "10019-2906", "longitude": "-73.98851", "latitude": "40.76862", "street": "860 10th Ave", "phone": "+1 212-262-6162", "neighborhood": "Midtown"}, "p1_i170": {"name": "Spicy Village", "zip": "10002-5142", "longitude": "-73.99327", "latitude": "40.71695", "street": "68 Forsyth St Frnt B", "phone": "+1 212-625-8299", "neighborhood": "Chinatown"}, "p1_i134": {"name": "Sushi Suki", "zip": "10028", "longitude": "-73.94848", "latitude": "40.77456", "street": "1577 York Ave", "phone": "+1 212-249-3766", "neighborhood": "Upper East Side"}, "p1_i7": {"name": "Avenue", "zip": "10011-4704", "longitude": "-74.00639", "latitude": "40.74408", "street": "116 10th Ave", "phone": "+1 212-337-0054", "neighborhood": "Chelsea"}, "p1_i199": {"name": "Wendy's", "zip": "10019-4224", "longitude": "-73.98331", "latitude": "40.76557", "street": "938 8th Ave", "phone": "+1 212-977-4785", "neighborhood": "Midtown"}, "p1_i163": {"name": "Cutting Board", "zip": "10013-4947", "longitude": "-73.99771", "latitude": "40.71516", "street": "53 Bayard St", "phone": "+1 212-528-0188", "neighborhood": "Chinatown"}, "p1_i129": {"name": "The Prime Grill", "zip": "10022", "longitude": "-73.9735", "latitude": "40.76146", "street": "550 Madison Avenue", "phone": "+1 212-692-9292", "neighborhood": "Midtown"}, "p1_i172": {"name": "Amsterdam Deli", "zip": "10024-4601", "longitude": "-73.97635", "latitude": "40.78584", "street": "481 Amsterdam Ave", "phone": "+1 212-769-8935", "neighborhood": "Upper West Side"}, "p1_i45": {"name": "The Watering Hole", "zip": "10003", "longitude": "-73.98746", "latitude": "40.73721", "street": "106 E 19th St", "phone": "+1 212-674-5783", "neighborhood": ""}, "p1_i151": {"name": "Charley Mom Restaurant", "zip": "10028-6023", "longitude": "-73.94816", "latitude": "40.77403", "street": "1580 York Ave", "phone": "+1 212-439-6363", "neighborhood": "Upper East Side"}, "p1_i120": {"name": "Pat'e Palo Bar & Grill", "zip": "10034-5349", "longitude": "-73.92817", "latitude": "40.86648", "street": "251 Dyckman St", "phone": "+1 646-918-6242", "neighborhood": ""}, "p1_i169": {"name": "Le Petit Parisien", "zip": "10003-8229", "longitude": "-73.98921", "latitude": "40.72821", "street": "32 E 7th St", "phone": "+1 917-262-0406", "neighborhood": "East Village"}, "p1_i25": {"name": "Tropical Isle Caribbean Restaurant", "zip": "11419-1923", "longitude": "-73.82443", "latitude": "40.68638", "street": "11819 Liberty Ave", "phone": "+1 718-848-4753", "neighborhood": ""}, "p1_i182": {"name": "ReViVer", "zip": "10019-4255", "longitude": "-73.98345", "latitude": "40.7655", "street": "934 8th Ave", "phone": "+1 917-475-1711", "neighborhood": "Midtown"}, "p1_i78": {"name": "Il Salumaio", "zip": "10128-3511", "longitude": "-73.95044", "latitude": "40.78022", "street": "1731 2nd Ave", "phone": "+1 646-852-6876", "neighborhood": "Upper East Side"}, "p1_i53": {"name": "Tuck Shop", "zip": "10011", "longitude": "-74.00466", "latitude": "40.74222", "street": "75 9th Ave", "phone": "+1 212-255-2021", "neighborhood": "Chelsea"}, "p1_i130": {"name": "Terrace Fish & Chips", "zip": "10004-2613", "longitude": "-74.01049", "latitude": "40.70404", "street": "77 Pearl St", "phone": "+1 212-809-4604", "neighborhood": "Financial District"}, "p1_i69": {"name": "New York Thai Grill & Sushi Bar", "zip": "10019-5432", "longitude": "-73.97861", "latitude": "40.76239", "street": "37 W 54th St", "phone": "+1 212-581-8808", "neighborhood": "Midtown"}, "p1_i57": {"name": "Lime Leaf", "zip": "10023-3354", "longitude": "-73.98003", "latitude": "40.77763", "street": "128 West 72nd Street", "phone": "+1 212-501-7800", "neighborhood": "Upper West Side"}, "p1_i60": {"name": "Apna Masala", "zip": "10003-8721", "longitude": "-73.98648", "latitude": "40.72643", "street": "344 E 6th St", "phone": "6467565597", "neighborhood": "East Village"}, "p1_i190": {"name": "Bar Veloce", "zip": "10011-1827", "longitude": "-73.99711", "latitude": "40.74262", "street": "176 7th Ave", "phone": "+1 212-629-5300", "neighborhood": "Chelsea"}, "p1_i193": {"name": "Taste Good Restaurant", "zip": "10010-2703", "longitude": "-73.99004", "latitude": "40.74331", "street": "18 W 25th St", "phone": "+1 212-741-3223", "neighborhood": "Flatiron"}, "p1_i24": {"name": "La Crosta", "zip": "10021", "longitude": "-73.95517", "latitude": "40.767303", "street": "436 E. 72nd Street", "phone": "+1 212-472-5004", "neighborhood": ""}, "p1_i160": {"name": "Dorian Gray", "zip": "10009-7209", "longitude": "-73.98375", "latitude": "40.72404", "street": "205 E 4th St", "phone": "+1 212-979-0900", "neighborhood": "East Village"}, "p1_i140": {"name": "Cafe Tomato", "zip": "10038-2505", "longitude": "-74.0085", "latitude": "40.71034", "street": "142 Fulton St", "phone": "+1 212-577-1231", "neighborhood": "Financial District"}, "p1_i154": {"name": "Subway", "zip": "10016-6339", "longitude": "-73.97753", "latitude": "40.74251", "street": "551 2nd Ave", "phone": "+1 212-685-3433", "neighborhood": "Midtown"}, "p1_i198": {"name": "Andy's Deli", "zip": "10014-3402", "longitude": "-74.00297", "latitude": "40.73332", "street": "106 7th Ave S", "phone": "+1 212-989-0648", "neighborhood": "West Village"}, "p1_i55": {"name": "Lincoln Fried Chicken", "zip": "10027-3407", "longitude": "-73.95805", "latitude": "40.81514", "street": "576 W 125th St", "phone": "+1 212-662-5489", "neighborhood": ""}, "p1_i90": {"name": "Subway", "zip": "10128-1646", "longitude": "-73.95233", "latitude": "40.78437", "street": "1434 Lexington Ave", "phone": "+1 212-534-7798", "neighborhood": "Upper East Side"}, "p1_i22": {"name": "McDonald's", "zip": "10022-7521", "longitude": "-73.97068", "latitude": "40.7562", "street": "824 3rd Ave", "phone": "+1 212-832-0447", "neighborhood": "Midtown"}, "p1_i119": {"name": "Nello", "zip": "10065-7206", "longitude": "-73.97008", "latitude": "40.765793", "street": "696 Madison Ave", "phone": "+1 212-980-9099", "neighborhood": "Upper East Side"}, "p1_i126": {"name": "Bistro New York", "zip": "10017-3140", "longitude": "-73.974304", "latitude": "40.753807", "street": "466 Lexington Ave", "phone": "+1 212-808-4200", "neighborhood": "Midtown"}, "p1_i29": {"name": "Y Cafe", "zip": "10009-3626", "longitude": "-73.97951", "latitude": "40.72783", "street": "182 Avenue B", "phone": "+1 212-777-3323", "neighborhood": "East Village"}, "p1_i155": {"name": "Epicurean Market", "zip": "10003-4539", "longitude": "-73.99387", "latitude": "40.73228", "street": "45 University Pl", "phone": "+1 212-477-9159", "neighborhood": "Greenwich Village"}, "p1_i98": {"name": "Dragon Town Chinese Restaurant", "zip": "10029-2802", "longitude": "-73.94227", "latitude": "40.79525", "street": "2030 3rd Ave", "phone": "+1 212-828-8277", "neighborhood": ""}, "p1_i63": {"name": "Papa John's", "zip": "10128-3504", "longitude": "-73.94953", "latitude": "40.78042", "street": "1732 2nd Ave", "phone": "+1 212-996-4444", "neighborhood": "Upper East Side"}, "p1_i4": {"name": "Carreon Bakery and Deli", "zip": "10034-1658", "longitude": "-73.91944", "latitude": "40.86835", "street": "4975 Broadway", "phone": "+1 212-569-1701", "neighborhood": ""}, "p1_i127": {"name": "Aaron Steaks", "zip": "10021-3772", "longitude": "-73.95757", "latitude": "40.76989", "street": "1413 2nd Ave", "phone": "+1 646-692-4111", "neighborhood": "Upper East Side"}, "p1_i71": {"name": "Mi Rachinto", "zip": "10033-4023", "longitude": "-73.93243", "latitude": "40.85081", "street": "1468 Saint Nicholas Ave", "phone": "+1 212-740-2626", "neighborhood": ""}, "p1_i47": {"name": "7 Tacos Mexican Cuisine", "zip": "10034-5626", "longitude": "-73.92533", "latitude": "40.86366", "street": "101 Sherman Ave Frnt 3", "phone": "+1 646-964-4743", "neighborhood": ""}, "p1_i161": {"name": "Asian Express", "zip": "10010-4607", "longitude": "-73.9818", "latitude": "40.7381", "street": "234 E 23rd St", "phone": "+1 212-481-2225", "neighborhood": ""}, "p1_i178": {"name": "Number 1 Chinese Restaurant", "zip": "10026-3151", "longitude": "-73.94974", "latitude": "40.80127", "street": "83 W 115th St", "phone": "+1 212-722-3958", "neighborhood": "Harlem"}, "p1_i8": {"name": "Sing Luck Gardens", "zip": "10031-5643", "longitude": "-73.95198", "latitude": "40.82418", "street": "3470 Broadway", "phone": "+1 212-862-1804", "neighborhood": "Harlem"}, "p1_i116": {"name": "KFC", "zip": "11366-1939", "longitude": "-73.808914", "latitude": "40.720146", "street": "15805 Union Tpke", "phone": "+1 718-380-6153", "neighborhood": ""}, "p1_i186": {"name": "Between The Bun", "zip": "11419-2332", "longitude": "-73.81612", "latitude": "40.69302", "street": "13103 101st Ave", "phone": "+1 718-480-6342", "neighborhood": ""}, "p1_i79": {"name": "Little Caesars", "zip": "10032-1547", "longitude": "-73.943634", "latitude": "40.835598", "street": "3830 Broadway", "phone": "+1 212-795-1585", "neighborhood": ""}, "p1_i147": {"name": "All Happiness", "zip": "10031-2520", "longitude": "-73.94775", "latitude": "40.82969", "street": "3640 Broadway", "phone": "+1 212-690-9100", "neighborhood": "Harlem"}, "p1_i37": {"name": "Uncle Tommy's Pizzeria", "zip": "11367-3359", "longitude": "-73.82042", "latitude": "40.71988", "street": "7749 Vleigh Pl", "phone": "+1 718-480-6394", "neighborhood": ""}}