{"p2_i7": {"name": "10th Avenue Pizza & Cafe", "zip": "10001", "longitude": "-74.0075162725073", "latitude": "40.7432250853356", "street": "256 10th Ave", "phone": "+1-212-366-9222", "neighborhood": "Meatpacking District||Chelsea"}, "p2_i166": {"name": "44 & X Hell's Kitchen", "zip": "10036", "longitude": "-73.9941787", "latitude": "40.7611032", "street": "622 10th Ave", "phone": "+1-212-977-1170", "neighborhood": "Midtown West||Hell's Kitchen"}, "p2_i47": {"name": "7 Tacos Mexican Cuisine", "zip": "10034", "longitude": "-73.92533", "latitude": "40.86366", "street": "101 Sherman Ave", "phone": "+1-646-964-4743", "neighborhood": "Washington Heights||Inwood"}, "p2_i127": {"name": "Aaron's Steaks", "zip": "10021", "longitude": "-73.957825", "latitude": "40.770004", "street": "1413 2nd Ave", "phone": "+1-646-692-4099", "neighborhood": "Upper East Side||Yorkville"}, "p2_i23": {"name": "Alin Sushi", "zip": "10002", "longitude": "-73.995025", "latitude": "40.716514", "street": "55-59 Chrystie St", "phone": "+1-646-922-7282", "neighborhood": "Chinatown||Lower East Side"}, "p2_i147": {"name": "All Happiness", "zip": "10031", "longitude": "-73.94775", "latitude": "40.82969", "street": "3640 Broadway", "phone": "+1-212-690-9100", "neighborhood": "Harlem"}, "p2_i171": {"name": "Amsterdam Deli", "zip": "10024", "longitude": "-73.97619", "latitude": "40.78577", "street": "481 Amsterdam Ave", "phone": "+1-212-769-8935", "neighborhood": "Upper West Side"}, "p2_i93": {"name": "An Choi", "zip": "10002", "longitude": "-73.99042", "latitude": "40.71798", "street": "85 Orchard St", "phone": "+1-212-226-3700", "neighborhood": "Lower East Side"}, "p2_i197": {"name": "Andy's Deli", "zip": "10014", "longitude": "-74.0032348632812", "latitude": "40.7333946228027", "street": "106 7th Ave S", "phone": "+1-212-989-0648", "neighborhood": "West Village"}, "p2_i28": {"name": "Angel's Share", "zip": "10003", "longitude": "-73.989168", "latitude": "40.72985", "street": "Village Yokocho", "phone": "+1-212-777-5415", "neighborhood": "East Village"}, "p2_i60": {"name": "Apna Masala Indian Cuisine", "zip": "10003", "longitude": "-73.987524", "latitude": "40.726977", "street": "344 E 6th St", "phone": "+1-646-756-5597", "neighborhood": "East Village"}, "p2_i149": {"name": "Apoth\u00e9ke", "zip": "10013", "longitude": "-73.998162", "latitude": "40.714444", "street": "9 Doyers St", "phone": "+1-212-406-0400", "neighborhood": "Chinatown||Civic Center"}, "p2_i160": {"name": "Asian Express", "zip": "10010", "longitude": "-73.98188", "latitude": "40.737991", "street": "234 E 23rd St", "phone": "+1-212-481-2225", "neighborhood": "Gramercy"}, "p2_i77": {"name": "Aunt Jake's", "zip": "10013", "longitude": "-73.997477170699", "latitude": "40.7190796908554", "street": "151 Mulberry Street", "phone": "+1-646-858-0470", "neighborhood": "Little Italy"}, "p2_i189": {"name": "Bar Veloce", "zip": "10011", "longitude": "-73.996979", "latitude": "40.742542", "street": "176 7th Ave", "phone": "+1-212-629-5300", "neighborhood": "Chelsea"}, "p2_i74": {"name": "Bareburger", "zip": "10038", "longitude": "-74.006245136261", "latitude": "40.7098361849785", "street": "155 William St", "phone": "+1-646-657-0388", "neighborhood": "Financial District"}, "p2_i91": {"name": "Basta Pasta", "zip": "10011", "longitude": "-73.994026184082", "latitude": "40.7389030456543", "street": "37 W 17th St", "phone": "+1-212-366-0888", "neighborhood": "Flatiron"}, "p2_i89": {"name": "Bei Jing Chinese Foods", "zip": "10019", "longitude": "-73.98851", "latitude": "40.768619", "street": "860 10th Ave", "phone": "+1-212-262-6162", "neighborhood": "Midtown West||Hell's Kitchen"}, "p2_i95": {"name": "Ben & Jack's Steakhouse", "zip": "10016", "longitude": "-73.986808", "latitude": "40.744804", "street": "255 5th Ave", "phone": "+1-212-532-7600", "neighborhood": "Flatiron"}, "p2_i10": {"name": "Bespoke Kitchen", "zip": "10014", "longitude": "-74.0059177", "latitude": "40.7378973", "street": "615 1/2 Hudson St", "phone": "+1-212-989-3155", "neighborhood": "West Village"}, "p2_i34": {"name": "Bettola", "zip": "10024", "longitude": "-73.978302", "latitude": "40.783733", "street": "412 Amsterdam Ave", "phone": "+1-212-787-1660", "neighborhood": "Upper West Side"}, "p2_i185": {"name": "Between The Bun", "zip": "11419", "longitude": "-73.81612", "latitude": "40.69302", "street": "131-03 101st Ave", "phone": "+1-718-480-6342", "neighborhood": "Ozone Park"}, "p2_i86": {"name": "Bisous Ciao", "zip": "10014", "longitude": "-74.0025336", "latitude": "40.7305994", "street": "235 Bleecker St", "phone": "+1-212-675-6366", "neighborhood": "West Village"}, "p2_i85": {"name": "Bistro Les Amis", "zip": "10012", "longitude": "-74.002624", "latitude": "40.724678", "street": "180 Spring St", "phone": "+1-212-226-8645", "neighborhood": "South Village"}, "p2_i126": {"name": "Bistro New York", "zip": "10017", "longitude": "-73.9766355603933", "latitude": "40.7505514472723", "street": "369 Lexington Ave", "phone": "+1-212-983-2200", "neighborhood": "Midtown East"}, "p2_i167": {"name": "Blue Seafood Bar", "zip": "10019", "longitude": "-73.98615", "latitude": "40.76685", "street": "856 Ninth Ave", "phone": "+1-212-757-7511", "neighborhood": "Midtown West||Hell's Kitchen"}, "p2_i128": {"name": "Broadway Bagel", "zip": "10025", "longitude": "-73.96927", "latitude": "40.79766", "street": "2658 Broadway", "phone": "+1-212-662-0231", "neighborhood": "Manhattan Valley"}, "p2_i182": {"name": "Buenos Aires", "zip": "10009", "longitude": "-73.983039855957", "latitude": "40.7253150939941", "street": "513 E 6th St", "phone": "+1-212-228-2775", "neighborhood": "East Village||Alphabet City"}, "p2_i170": {"name": "Bunn", "zip": "10001", "longitude": "-73.9862736", "latitude": "40.7476713", "street": "11 W 32nd St", "phone": "+1-212-643-1000", "neighborhood": "Midtown West||Koreatown"}, "p2_i187": {"name": "C & L Dumpling House", "zip": "10002", "longitude": "-73.994598", "latitude": "40.717277", "street": "77 Chrystie St", "phone": "+1-212-219-8850", "neighborhood": "Chinatown||Lower East Side"}, "p2_i70": {"name": "Cafe Clover", "zip": "10014", "longitude": "-74.0027698391672", "latitude": "40.7295313881459", "street": "10 Downing St", "phone": "+1-212-675-4350", "neighborhood": "West Village"}, "p2_i36": {"name": "Cafe Del Sol", "zip": "10018", "longitude": "-73.9900131", "latitude": "40.7523003", "street": "480 7th Ave", "phone": "+1-212-643-2926", "neighborhood": "Midtown West"}, "p2_i122": {"name": "Cafe Today", "zip": "10022", "longitude": "-73.9712677001953", "latitude": "40.757194519043", "street": "575 Lexington Ave", "phone": "+1-212-308-3206", "neighborhood": "Midtown East"}, "p2_i140": {"name": "Cafe Tomato", "zip": "10038", "longitude": "-74.0084382", "latitude": "40.7104766", "street": "142 Fulton St", "phone": "+1-212-577-1231", "neighborhood": "Financial District"}, "p2_i186": {"name": "Canteen 82", "zip": "10024", "longitude": "-73.973541", "latitude": "40.784057", "street": "467 Columbus Ave", "phone": "+1-212-595-4300", "neighborhood": "Upper West Side"}, "p2_i173": {"name": "Carma Asian Tapas", "zip": "10014", "longitude": "-74.0032", "latitude": "40.72999", "street": "38-40 Carmine St", "phone": "+1-212-243-0388", "neighborhood": "West Village"}, "p2_i4": {"name": "Carreon's Deli and Bakery", "zip": "10034", "longitude": "-73.919519931078", "latitude": "40.8682152628899", "street": "4975 Broadway", "phone": "+1-917-924-1233", "neighborhood": "Inwood"}, "p2_i32": {"name": "Celsius", "zip": "10018", "longitude": "-73.9830917263431", "latitude": "40.7537751404799", "street": "Bryant Park", "phone": "+1-212-792-9603", "neighborhood": "Midtown West"}, "p2_i19": {"name": "C'est Bon Cafe", "zip": "10022", "longitude": "-73.9698867797852", "latitude": "40.7609367370605", "street": "120 E 57th St", "phone": "+1-212-888-7272", "neighborhood": "Midtown East"}, "p2_i151": {"name": "Charley Mom Restaurant", "zip": "10028", "longitude": "-73.9481582641602", "latitude": "40.7740287780762", "street": "1580 York Ave", "phone": "+1-212-439-6363", "neighborhood": "Upper East Side||Yorkville"}, "p2_i65": {"name": "Chelsea Square Restaurant", "zip": "10011", "longitude": "-74.0012741088867", "latitude": "40.746208190918", "street": "368 W 23rd St", "phone": "+1-212-691-5400", "neighborhood": "Chelsea"}, "p2_i80": {"name": "Chinatown Restaurant", "zip": "10128", "longitude": "-73.95126", "latitude": "40.78286", "street": "1650 3 Ave", "phone": "+1-212-987-3500", "neighborhood": "Upper East Side||Yorkville"}, "p2_i0": {"name": "Chipotle Mexican Grill", "zip": "10036", "longitude": "-73.9916", "latitude": "40.75954", "street": "620 9th Ave", "phone": "+1-212-247-3275", "neighborhood": "Theater District||Midtown West||Hell's Kitchen"}, "p2_i40": {"name": "Churrascaria Plataforma", "zip": "10019", "longitude": "-73.98765", "latitude": "40.76202", "street": "316 W 49th St", "phone": "+1-212-245-0505", "neighborhood": "Theater District||Midtown West||Hell's Kitchen"}, "p2_i188": {"name": "Ciccio", "zip": "10012", "longitude": "-74.0034497364971", "latitude": "40.7264542403041", "street": "190 6th Ave", "phone": "+1-646-476-9498", "neighborhood": "South Village"}, "p2_i143": {"name": "Circo", "zip": "10019", "longitude": "-73.9792556762695", "latitude": "40.7630653381348", "street": "120 W 55th St", "phone": "+1-212-265-3636", "neighborhood": "Midtown West"}, "p2_i52": {"name": "Clarke's Standard", "zip": "10003", "longitude": "-73.9898709", "latitude": "40.73751", "street": "870 Broadway", "phone": "+1-212-529-9100", "neighborhood": "Flatiron||Union Square"}, "p2_i145": {"name": "Company", "zip": "10001", "longitude": "-74.0006728470325", "latitude": "40.7472965866327", "street": "230 9th Ave", "phone": "+1-212-243-1105", "neighborhood": "Chelsea"}, "p2_i108": {"name": "Connolly's Pub & Restaurant", "zip": "10036", "longitude": "-73.9835968017578", "latitude": "40.7573547363281", "street": "121 W 45th St", "phone": "+1-212-597-5126", "neighborhood": "Theater District||Midtown West"}, "p2_i105": {"name": "Cowgirl Sea Horse", "zip": "10038", "longitude": "-74.0004532", "latitude": "40.7081358", "street": "259 Front St", "phone": "+1-212-608-7873", "neighborhood": "Financial District"}, "p2_i51": {"name": "Crispin's", "zip": "10019", "longitude": "-73.9907743992128", "latitude": "40.7657591943622", "street": "764 10th Ave", "phone": "+1-212-586-0888", "neighborhood": "Midtown West||Hell's Kitchen"}, "p2_i162": {"name": "Cutting Board", "zip": "10013", "longitude": "-73.9977035522461", "latitude": "40.715145111084", "street": "53 Bayard St", "phone": "+1-212-528-0188", "neighborhood": "Chinatown"}, "p2_i17": {"name": "Da Mikele", "zip": "10013", "longitude": "-74.004802", "latitude": "40.718477", "street": "275 Church St", "phone": "+1-212-925-8800", "neighborhood": "TriBeCa"}, "p2_i33": {"name": "Dafni Greek Taverna", "zip": "10036", "longitude": "-73.9908371", "latitude": "40.7579918", "street": "325 W 42nd St", "phone": "+1-212-315-1010", "neighborhood": "Theater District||Midtown West||Hell's Kitchen"}, "p2_i133": {"name": "Dan and John's Wings", "zip": "10003", "longitude": "-73.9853134", "latitude": "40.7278557", "street": "135 1st Ave", "phone": "+1-212-858-9935", "neighborhood": "East Village"}, "p2_i49": {"name": "Dig Inn", "zip": "10014", "longitude": "-74.0071263", "latitude": "40.7276592", "street": "350 Hudson St", "phone": "+1-917-720-1205", "neighborhood": "South Village"}, "p2_i172": {"name": "Don Pepi Pizza", "zip": "10121", "longitude": "-73.9923316", "latitude": "40.7506946", "street": "2 Pennsylvania Plz", "phone": "+1-212-967-4385", "neighborhood": "Midtown West"}, "p2_i159": {"name": "Dorian Gray Tap and Grill", "zip": "10009", "longitude": "-73.983742", "latitude": "40.724033", "street": "205 E 4th St", "phone": "+1-212-979-0900", "neighborhood": "East Village||Alphabet City"}, "p2_i98": {"name": "Dragon Town", "zip": "10029", "longitude": "-73.9421936", "latitude": "40.7952288", "street": "2030 Third Ave", "phone": "+1-212-828-8277", "neighborhood": "East Harlem"}, "p2_i107": {"name": "EJ's Luncheonette", "zip": "10021", "longitude": "-73.959732", "latitude": "40.770442", "street": "1271 3rd Ave", "phone": "+1-212-472-0600", "neighborhood": "Upper East Side||Yorkville"}, "p2_i12": {"name": "El Mate", "zip": "11231", "longitude": "-73.9995224876405", "latitude": "40.6749782203506", "street": "550 Court St", "phone": "+1-718-222-1102", "neighborhood": "Carroll Gardens"}, "p2_i118": {"name": "Entwine", "zip": "10014", "longitude": "-74.00796", "latitude": "40.737398", "street": "765 Washington St", "phone": "+1-212-727-8765", "neighborhood": "West Village"}, "p2_i155": {"name": "Epicurean Market", "zip": "10003", "longitude": "-73.993873", "latitude": "40.73228", "street": "45 University Pl", "phone": "+1-212-477-9159", "neighborhood": "Greenwich Village"}, "p2_i176": {"name": "Esca", "zip": "10036", "longitude": "-73.9924231", "latitude": "40.7590663", "street": "402 W 43rd St", "phone": "+1-212-564-7272", "neighborhood": "Midtown West||Hell's Kitchen"}, "p2_i35": {"name": "Essex", "zip": "10002", "longitude": "-73.9874465", "latitude": "40.7193235", "street": "120 Essex St", "phone": "+1-212-533-9616", "neighborhood": "Lower East Side"}, "p2_i142": {"name": "Euro Diner", "zip": "10036", "longitude": "-73.987777", "latitude": "40.759437", "street": "738 8th Ave", "phone": "+1-212-391-0603", "neighborhood": "Theater District||Midtown West"}, "p2_i9": {"name": "Famous Famiglia", "zip": "10036", "longitude": "-73.9889908", "latitude": "40.7580338", "street": "686 8th Ave", "phone": "+1-212-382-3030", "neighborhood": "Theater District||Midtown West||Hell's Kitchen"}, "p2_i104": {"name": "Fiat Cafe", "zip": "10012", "longitude": "-73.9956631", "latitude": "40.7214697", "street": "203 Mott St", "phone": "+1-212-969-1809", "neighborhood": "Nolita"}, "p2_i148": {"name": "Fine & Schapiro", "zip": "10023", "longitude": "-73.980354309082", "latitude": "40.7777633666992", "street": "138 W 72nd St", "phone": "+1-212-877-2721", "neighborhood": "Upper West Side"}, "p2_i84": {"name": "Firehouse", "zip": "10024", "longitude": "-73.9727173", "latitude": "40.7860718", "street": "522 Columbus Ave", "phone": "+1-212-595-3139", "neighborhood": "Upper West Side"}, "p2_i157": {"name": "Gaetana's", "zip": "10014", "longitude": "-74.007623322014", "latitude": "40.732952570801", "street": "143 Christopher St", "phone": "+1-212-675-3913", "neighborhood": "West Village"}, "p2_i101": {"name": "Girello", "zip": "10013", "longitude": "-74.007019", "latitude": "40.7195549", "street": "11 Varick St", "phone": "+1-212-941-0110", "neighborhood": "TriBeCa"}, "p2_i196": {"name": "Giuseppe's Pizza", "zip": "10016", "longitude": "-73.977035", "latitude": "40.749694", "street": "341 Lexington Ave", "phone": "+1-212-683-4721", "neighborhood": "Murray Hill||Midtown East"}, "p2_i73": {"name": "Goemon", "zip": "10012", "longitude": "-73.995101", "latitude": "40.720836", "street": "29 Kenmare St", "phone": "+1-212-226-1262", "neighborhood": "Nolita"}, "p2_i184": {"name": "Gonzalez y Gonzalez", "zip": "10012", "longitude": "-73.9971209317446", "latitude": "40.7262741029263", "street": "192 Mercer St", "phone": "+1-212-473-7878", "neighborhood": "Greenwich Village"}, "p2_i64": {"name": "Greek Eats", "zip": "10065", "longitude": "-73.958862", "latitude": "40.764358", "street": "1229 1st Ave", "phone": "+1-212-861-4976", "neighborhood": "Upper East Side"}, "p2_i72": {"name": "Hale & Hearty Soups", "zip": "10001", "longitude": "-73.992401", "latitude": "40.748047", "street": "345 7th Ave", "phone": "", "neighborhood": "Midtown West||Chelsea"}, "p2_i124": {"name": "Hale & Hearty Soups", "zip": "10019", "longitude": "-73.97667", "latitude": "40.76339", "street": "55 W 56th St", "phone": "+1-212-245-9200", "neighborhood": "Midtown West"}, "p2_i103": {"name": "Hanci Turkish Cuisine", "zip": "10019", "longitude": "-73.9887", "latitude": "40.768482", "street": "854 10th Ave", "phone": "+1-212-707-8144", "neighborhood": "Midtown West||Hell's Kitchen"}, "p2_i193": {"name": "Harry's Cafe & Steak", "zip": "10004", "longitude": "-74.009834", "latitude": "40.704513", "street": "1 Hanover Sq", "phone": "+1-212-785-9200", "neighborhood": "Financial District"}, "p2_i27": {"name": "Hundred Acres", "zip": "10012", "longitude": "-74.00283", "latitude": "40.72707", "street": "38 Macdougal St", "phone": "+1-212-475-7500", "neighborhood": "South Village"}, "p2_i78": {"name": "Il Salumaio", "zip": "10128", "longitude": "-73.9502899", "latitude": "40.7801684", "street": "1731 2nd Ave", "phone": "+1-646-852-6876", "neighborhood": "Upper East Side||Yorkville"}, "p2_i112": {"name": "Jeffrey's Grocery", "zip": "10014", "longitude": "-74.00137", "latitude": "40.73399", "street": "172 Waverly Pl", "phone": "+1-646-398-7630", "neighborhood": "West Village"}, "p2_i6": {"name": "Joe's Pizza", "zip": "10003", "longitude": "-73.988123", "latitude": "40.733692", "street": "150 East 14th St", "phone": "+1-212-388-9474", "neighborhood": "Gramercy||East Village"}, "p2_i41": {"name": "JR Sushi", "zip": "10007", "longitude": "-74.0095978", "latitude": "40.7153015", "street": "86A W Broadway", "phone": "+1-212-233-8338", "neighborhood": "TriBeCa"}, "p2_i16": {"name": "Junoon", "zip": "10010", "longitude": "-73.990838", "latitude": "40.743193", "street": "27 W 24th St", "phone": "+1-212-490-2100", "neighborhood": "Flatiron"}, "p2_i14": {"name": "Kahve", "zip": "10019", "longitude": "-73.9878845214844", "latitude": "40.7643852233887", "street": "774 9th Ave", "phone": "+1-212-256-0207", "neighborhood": "Theater District||Midtown West||Hell's Kitchen"}, "p2_i116": {"name": "KFC", "zip": "11366", "longitude": "-73.8089", "latitude": "40.7204", "street": "158-05 Union Turnpike", "phone": "+1-718-380-6153", "neighborhood": "Flushing||Hillcrest"}, "p2_i18": {"name": "Khushboo Indian Restaurant", "zip": "10002", "longitude": "-73.983804", "latitude": "40.721026", "street": "6 Clinton St", "phone": "+1-212-533-2828", "neighborhood": "Lower East Side"}, "p2_i139": {"name": "Kopitiam", "zip": "10002", "longitude": "-73.99172", "latitude": "40.715", "street": "51B Canal St", "phone": "+1-646-894-7081", "neighborhood": "Chinatown||Lower East Side"}, "p2_i48": {"name": "Kosaka", "zip": "10011", "longitude": "-74.0014449879527", "latitude": "40.7381972955808", "street": "220 W 13th St", "phone": "+1-212-727-1709", "neighborhood": "West Village"}, "p2_i191": {"name": "Kung Fu Little Steamed Buns Ramen", "zip": "10022", "longitude": "-73.9694294705987", "latitude": "40.7592514705491", "street": "146 E 55th St", "phone": "+1-212-804-8556", "neighborhood": "Midtown East"}, "p2_i24": {"name": "La Crosta", "zip": "10021", "longitude": "-73.9542998", "latitude": "40.7669811", "street": "436 E 72nd St", "phone": "+1-212-472-5004", "neighborhood": "Upper East Side"}, "p2_i82": {"name": "La Loteria", "zip": "10014", "longitude": "-74.004135953373", "latitude": "40.7307865530978", "street": "29 7th Ave S", "phone": "+1-212-858-9096", "neighborhood": "West Village"}, "p2_i180": {"name": "La Preciosa China Restaurant", "zip": "10029", "longitude": "-73.94081", "latitude": "40.79859", "street": "163 E 116th St", "phone": "", "neighborhood": "East Harlem"}, "p2_i179": {"name": "La Vie En Szechuan", "zip": "10016", "longitude": "-73.984382", "latitude": "40.7472", "street": "14 E 33rd St", "phone": "+1-212-683-2779", "neighborhood": "Midtown East"}, "p2_i88": {"name": "Lanza's Restaurant", "zip": "10009", "longitude": "-73.98399", "latitude": "40.72887", "street": "168 1st Ave", "phone": "+1-212-674-7014", "neighborhood": "East Village"}, "p2_i135": {"name": "Le Baratin", "zip": "10011", "longitude": "-73.999857", "latitude": "40.735025", "street": "26 Greenwich Ave", "phone": "+1-212-933-1080", "neighborhood": "West Village"}, "p2_i168": {"name": "Le Petit Parisien", "zip": "10003", "longitude": "-73.9892120361328", "latitude": "40.7282104492188", "street": "32 E 7th St", "phone": "+1-917-262-0406", "neighborhood": "East Village"}, "p2_i57": {"name": "Lime Leaf", "zip": "10023", "longitude": "-73.980026", "latitude": "40.777629", "street": "128 W 72nd St", "phone": "+1-212-501-7800", "neighborhood": "Upper West Side"}, "p2_i55": {"name": "Lincoln Fried Chicken", "zip": "10027", "longitude": "-73.9581095", "latitude": "40.8152484", "street": "576 W 125th St", "phone": "+1-212-662-5489", "neighborhood": "Harlem"}, "p2_i79": {"name": "Little Caeser's Pizza", "zip": "10032", "longitude": "-73.9433642036686", "latitude": "40.8354260227305", "street": "3828 Broadway", "phone": "", "neighborhood": "Washington Heights"}, "p2_i44": {"name": "Louie and Chan", "zip": "10002", "longitude": "-73.9924058", "latitude": "40.7187118", "street": "303 Broome St", "phone": "+1-212-837-2816", "neighborhood": "Lower East Side"}, "p2_i2": {"name": "Luce Restaurant & Enoteca", "zip": "10023", "longitude": "-73.9818977", "latitude": "40.7759084", "street": "2014 Broadway", "phone": "+1-212-724-1400", "neighborhood": "Upper West Side"}, "p2_i115": {"name": "Luke's Lobster", "zip": "10010", "longitude": "-73.9896291822785", "latitude": "40.7434180877802", "street": "5 W 25th St", "phone": "+1-646-657-0747", "neighborhood": "Flatiron"}, "p2_i66": {"name": "Luna Pizza", "zip": "10038", "longitude": "-73.998651104496", "latitude": "40.713245675315", "street": "225 Park Row", "phone": "+1-212-385-8118", "neighborhood": "Chinatown||Civic Center"}, "p2_i100": {"name": "Lunetta Pizza", "zip": "10065", "longitude": "-73.959579", "latitude": "40.762397", "street": "1162 1st Ave", "phone": "+1-212-758-8100", "neighborhood": "Upper East Side"}, "p2_i42": {"name": "Lupa", "zip": "10012", "longitude": "-74.00021", "latitude": "40.72765", "street": "170 Thompson St", "phone": "+1-212-982-5089", "neighborhood": "Greenwich Village"}, "p2_i109": {"name": "Lupulo", "zip": "10001", "longitude": "-73.9901974346927", "latitude": "40.7468474021549", "street": "835 6th Ave", "phone": "+1-212-290-7600", "neighborhood": "Midtown West||Chelsea"}, "p2_i174": {"name": "Luscious Thai", "zip": "10065", "longitude": "-73.961708", "latitude": "40.760528", "street": "1099 1st Ave", "phone": "+1-212-813-1188", "neighborhood": "Upper East Side"}, "p2_i121": {"name": "Mae Mae Caf\u00e9", "zip": "10013", "longitude": "-74.006684501801", "latitude": "40.726425908428", "street": "68 Vandam St", "phone": "+1-212-924-5109", "neighborhood": "South Village"}, "p2_i110": {"name": "Mandarin Oriental Lobby Lounge", "zip": "10023", "longitude": "-73.9829538", "latitude": "40.7690784", "street": "80 Columbus Cir at 60th St", "phone": "+1-212-805-8800", "neighborhood": "Upper West Side"}, "p2_i106": {"name": "Marcony", "zip": "10016", "longitude": "-73.981193", "latitude": "40.744865", "street": "184 Lexington Ave", "phone": "+1-646-837-6020", "neighborhood": "Murray Hill||Midtown East"}, "p2_i22": {"name": "McDonald's", "zip": "10022", "longitude": "-73.9706802", "latitude": "40.7561989", "street": "824 3rd Ave", "phone": "+1-212-832-0447", "neighborhood": "Midtown East"}, "p2_i11": {"name": "McDonalds", "zip": "10036", "longitude": "-73.9900283813477", "latitude": "40.7569007873535", "street": "Broadway 1560", "phone": "+1-212-921-8900", "neighborhood": "Theater District||Midtown West"}, "p2_i71": {"name": "Mi Ranchito", "zip": "10033", "longitude": "-73.9325881480936", "latitude": "40.850878189059", "street": "1468 St Nicholas Ave", "phone": "+1-212-740-2626", "neighborhood": "Washington Heights"}, "p2_i136": {"name": "Minar Indian Restaurant", "zip": "10036", "longitude": "-73.984031", "latitude": "40.757892", "street": "138 W 46th St", "phone": "+1-212-398-4600", "neighborhood": "Theater District||Midtown West"}, "p2_i161": {"name": "Moe's Southwest Grill", "zip": "10018", "longitude": "-73.9857652", "latitude": "40.7526309", "street": "1029A Ave of the Americas", "phone": "+1-212-575-7711", "neighborhood": "Midtown West"}, "p2_i58": {"name": "Morso", "zip": "10022", "longitude": "-73.9609375", "latitude": "40.7587013", "street": "420 E 59th St", "phone": "+1-212-759-2706", "neighborhood": "Midtown East"}, "p2_i102": {"name": "Muldoon's", "zip": "10017", "longitude": "-73.974029", "latitude": "40.751899", "street": "692 3rd Ave", "phone": "+1-212-599-2750", "neighborhood": "Midtown East"}, "p2_i113": {"name": "Murals On 54", "zip": "10019", "longitude": "-73.9782725", "latitude": "40.7624022", "street": "65 W 54th St", "phone": "+1-212-314-7700", "neighborhood": "Theater District||Midtown West"}, "p2_i190": {"name": "Murphy's Law", "zip": "10021", "longitude": "-73.9556503295898", "latitude": "40.7661933898926", "street": "417 E 70th St", "phone": "+1-212-628-3724", "neighborhood": "Upper East Side"}, "p2_i3": {"name": "Nana Sweet Sushi", "zip": "10016", "longitude": "-73.977688", "latitude": "40.745989", "street": "511 3rd Ave", "phone": "+1-212-683-1088", "neighborhood": "Murray Hill||Midtown East"}, "p2_i119": {"name": "Nello", "zip": "10021", "longitude": "-73.9699749", "latitude": "40.7658062", "street": "696 Madison Ave", "phone": "+1-212-980-9099", "neighborhood": "Upper East Side"}, "p2_i175": {"name": "New York Sal's Pizza", "zip": "10019", "longitude": "-73.9921112060547", "latitude": "40.7637252807617", "street": "696 10th Ave", "phone": "+1-212-247-3628", "neighborhood": "Midtown West||Hell's Kitchen"}, "p2_i56": {"name": "Nick's Pizza", "zip": "10128", "longitude": "-73.9478073120117", "latitude": "40.78271484375", "street": "1814 2nd Ave", "phone": "+1-212-987-5700", "neighborhood": "Upper East Side||Yorkville"}, "p2_i21": {"name": "Noodle Bar", "zip": "10014", "longitude": "-74.002708", "latitude": "40.730045", "street": "26 Carmine St", "phone": "+1-212-524-6800", "neighborhood": "West Village"}, "p2_i194": {"name": "North Square", "zip": "10011", "longitude": "-73.998657", "latitude": "40.732509", "street": "103 Waverly Pl", "phone": "+1-212-254-1200", "neighborhood": "Greenwich Village"}, "p2_i177": {"name": "Number 1 Chinese Restaurant", "zip": "10026", "longitude": "-73.94974", "latitude": "40.80127", "street": "83 W 115th St", "phone": "+1-212-722-3958", "neighborhood": "Harlem"}, "p2_i69": {"name": "NY Thai Grill & Sushi Bar", "zip": "10019", "longitude": "-73.9773178100586", "latitude": "40.7620964050293", "street": "37 W 54th St", "phone": "+1-212-581-8808", "neighborhood": "Midtown West"}, "p2_i50": {"name": "Olive's", "zip": "10012", "longitude": "-74.00241", "latitude": "40.7266199", "street": "191 Prince Street", "phone": "+1-212-941-0111", "neighborhood": "South Village"}, "p2_i59": {"name": "P.J. Clarke's", "zip": "10281", "longitude": "-74.0160786818073", "latitude": "40.7136550882004", "street": "Liberty St 200", "phone": "+1-212-285-1500", "neighborhood": "Battery Park"}, "p2_i63": {"name": "Papa John's Pizza", "zip": "10128", "longitude": "-73.9495211094618", "latitude": "40.7804170321326", "street": "1732 2nd Ave", "phone": "+1-212-996-4444", "neighborhood": "Upper East Side||Yorkville"}, "p2_i120": {"name": "Pat'e Palo Bar & Grill", "zip": "10034", "longitude": "-73.9283222705126", "latitude": "40.8664852380753", "street": "251 Dyckman St", "phone": "+1-646-918-6242", "neighborhood": "Washington Heights||Inwood"}, "p2_i158": {"name": "Pergola", "zip": "10001", "longitude": "-73.9896723112677", "latitude": "40.7458517096124", "street": "36 W 28th St", "phone": "+1-212-679-4842", "neighborhood": "Flatiron"}, "p2_i26": {"name": "Petaluma", "zip": "10021", "longitude": "-73.9553474", "latitude": "40.7682492", "street": "1356 1st Ave", "phone": "+1-212-772-8800", "neighborhood": "Upper East Side||Yorkville"}, "p2_i153": {"name": "Pinto", "zip": "10014", "longitude": "-74.005447", "latitude": "40.733032", "street": "118 Christopher St", "phone": "+1-212-366-5455", "neighborhood": "West Village"}, "p2_i96": {"name": "Pio Pio 7", "zip": "10016", "longitude": "-73.977676", "latitude": "40.74525", "street": "210 E 34th St", "phone": "+1-212-481-0034", "neighborhood": "Murray Hill||Kips Bay||Midtown East"}, "p2_i138": {"name": "PJ Moran's", "zip": "10017", "longitude": "-73.9774627685547", "latitude": "40.7572593688965", "street": "3 E 48th St", "phone": "+1-212-753-6440", "neighborhood": "Midtown East"}, "p2_i129": {"name": "Prime Grill", "zip": "10022", "longitude": "-73.9734879", "latitude": "40.7614594", "street": "550 Madison Ave", "phone": "+1-212-692-9292", "neighborhood": "Midtown East"}, "p2_i137": {"name": "Proper West", "zip": "10018", "longitude": "-73.9848813489212", "latitude": "40.7526130492966", "street": "54 W 39th St", "phone": "+1-212-997-9000", "neighborhood": "Midtown West"}, "p2_i150": {"name": "Puff Cha Ramen", "zip": "10019", "longitude": "-73.991215", "latitude": "40.7647", "street": "457 W 50th St", "phone": "+1-646-682-7768", "neighborhood": "Midtown West||Hell's Kitchen"}, "p2_i152": {"name": "Reade Street Pub & Kitchen", "zip": "10013", "longitude": "-74.00975", "latitude": "40.716224", "street": "135 Reade St", "phone": "+1-212-227-2295", "neighborhood": "TriBeCa"}, "p2_i5": {"name": "Red Chili Indian Cafe", "zip": "10026", "longitude": "-73.9505889", "latitude": "40.802088", "street": "108 W 116th St", "phone": "+1-646-964-5916", "neighborhood": "Harlem"}, "p2_i62": {"name": "Resto", "zip": "10016", "longitude": "-73.9827194213867", "latitude": "40.7438087463379", "street": "111 E 29th St", "phone": "+1-212-685-5585", "neighborhood": "Flatiron||Midtown East"}, "p2_i181": {"name": "Reviver", "zip": "10019", "longitude": "-73.9835436526976", "latitude": "40.7656107624063", "street": "934 8th Ave", "phone": "+1-917-475-1711", "neighborhood": "Midtown West||Hell's Kitchen"}, "p2_i94": {"name": "Roti Modern Mediterranean", "zip": "10038", "longitude": "-74.007217", "latitude": "40.706718", "street": "100 Maiden Ln", "phone": "+1-646-494-3359", "neighborhood": "Financial District"}, "p2_i61": {"name": "Ruchi Restaurant", "zip": "10006", "longitude": "-74.0127293677959", "latitude": "40.7096108910337", "street": "120 Cedar St", "phone": "+1-212-227-8455", "neighborhood": "Financial District"}, "p2_i111": {"name": "Saffron", "zip": "10023", "longitude": "-73.9775128214034", "latitude": "40.7795372331698", "street": "320 Columbus Ave", "phone": "+1-212-724-6363", "neighborhood": "Upper West Side"}, "p2_i114": {"name": "Sammy's Roumanian Steakhouse", "zip": "10002", "longitude": "-73.992872", "latitude": "40.720429", "street": "157 Chrystie St", "phone": "+1-212-673-0330", "neighborhood": "Lower East Side"}, "p2_i43": {"name": "Santina", "zip": "10014", "longitude": "-74.008445", "latitude": "40.739608", "street": "820 Washington St", "phone": "+1-212-254-3000", "neighborhood": "Meatpacking District||West Village"}, "p2_i81": {"name": "Savour Sichuan", "zip": "10018", "longitude": "-73.9862213134766", "latitude": "40.7529945373535", "street": "108 W 39th St", "phone": "+1-212-221-7237", "neighborhood": "Midtown West"}, "p2_i13": {"name": "Schiller's Liquor Bar", "zip": "10002", "longitude": "-73.986686", "latitude": "40.719352", "street": "131 Rivington St", "phone": "+1-212-260-4555", "neighborhood": "Lower East Side"}, "p2_i178": {"name": "Shake Shack", "zip": "10036", "longitude": "-73.9891822636127", "latitude": "40.758412133689", "street": "691 8th Ave", "phone": "+1-646-435-0136", "neighborhood": "Theater District||Midtown West||Hell's Kitchen"}, "p2_i39": {"name": "Shoga Sushi & Oyster Bar", "zip": "10128", "longitude": "-73.9507931470871", "latitude": "40.7790547129288", "street": "300 E 88th St", "phone": "+1-212-289-4635", "neighborhood": "Upper East Side||Yorkville"}, "p2_i8": {"name": "Sing Luck Gardens", "zip": "10031", "longitude": "-73.951713", "latitude": "40.824077", "street": "3470 Broadway", "phone": "+1-212-862-1804", "neighborhood": "Harlem"}, "p2_i146": {"name": "Socarrat Paella Bar - Nolita", "zip": "10012", "longitude": "-73.994899", "latitude": "40.724419", "street": "284 Mulberry St", "phone": "+1-212-219-0101", "neighborhood": "Nolita"}, "p2_i169": {"name": "Spicy Village", "zip": "10002", "longitude": "-73.993263", "latitude": "40.716946", "street": "68 Forsyth St", "phone": "+1-212-625-8299", "neighborhood": "Lower East Side"}, "p2_i154": {"name": "Subway", "zip": "10016", "longitude": "-73.977783", "latitude": "40.742664", "street": "551 2nd Ave", "phone": "", "neighborhood": "Kips Bay||Midtown East"}, "p2_i38": {"name": "Subway", "zip": "10019", "longitude": "-73.9847794", "latitude": "40.7614784", "street": "214 W 50th St", "phone": "+1-212-265-1822", "neighborhood": "Theater District||Midtown West"}, "p2_i90": {"name": "Subway", "zip": "10128", "longitude": "-73.9523315429688", "latitude": "40.784366607666", "street": "1434 Lexington Ave", "phone": "+1-212-534-7797", "neighborhood": "Upper East Side"}, "p2_i131": {"name": "Suprema Provisions", "zip": "10014", "longitude": "-74.0036155", "latitude": "40.7326925", "street": "305 Bleecker Street", "phone": "+1-646-964-4994", "neighborhood": "West Village"}, "p2_i141": {"name": "Sushi Para Japanese Restaurant", "zip": "10028", "longitude": "-73.9553339", "latitude": "40.776461", "street": "1461 3rd Ave", "phone": "+1-212-585-0300", "neighborhood": "Upper East Side||Yorkville"}, "p2_i134": {"name": "Sushi Suki", "zip": "10028", "longitude": "-73.948486", "latitude": "40.774562", "street": "1577 York Ave", "phone": "+1-212-249-3766", "neighborhood": "Upper East Side||Yorkville"}, "p2_i76": {"name": "sweetgreen", "zip": "10023", "longitude": "-73.980148", "latitude": "40.780284", "street": "311 Amsterdam Ave", "phone": "+1-212-496-4081", "neighborhood": "Upper West Side"}, "p2_i123": {"name": "Tacuba Hell's Kitchen Cantina Mexicana", "zip": "10019", "longitude": "-73.98719", "latitude": "40.765422", "street": "802 9th Ave", "phone": "+1-212-245-4500", "neighborhood": "Theater District||Midtown West||Hell's Kitchen"}, "p2_i83": {"name": "Talent Thai Kitchen", "zip": "10016", "longitude": "-73.97768", "latitude": "40.74525", "street": "210 E 34th St", "phone": "+1-212-725-8888", "neighborhood": "Murray Hill||Kips Bay||Midtown East"}, "p2_i156": {"name": "Tamba Indian Grill & Bar", "zip": "10016", "longitude": "-73.982482", "latitude": "40.742134", "street": "103 Lexington Ave", "phone": "+1-212-481-9100", "neighborhood": "Flatiron||Kips Bay"}, "p2_i20": {"name": "Tandoor Oven", "zip": "10028", "longitude": "-73.9560201019049", "latitude": "40.7771810889244", "street": "175 E 83rd St", "phone": "+1-212-628-3000", "neighborhood": "Upper East Side||Yorkville"}, "p2_i163": {"name": "Tarallucci E Vino", "zip": "10003", "longitude": "-73.99069", "latitude": "40.73814", "street": "15 E 18th St", "phone": "+1-212-228-5400", "neighborhood": "Flatiron"}, "p2_i192": {"name": "Taste Good", "zip": "10010", "longitude": "-73.9900399", "latitude": "40.74331", "street": "18 W 25th St", "phone": "+1-212-741-3223", "neighborhood": "Flatiron"}, "p2_i165": {"name": "Tataki Japanese Restaurant", "zip": "10013", "longitude": "-74.004859", "latitude": "40.720668", "street": "3 Lispenard St", "phone": "+1-212-965-0975", "neighborhood": "TriBeCa"}, "p2_i132": {"name": "Tenzan 89", "zip": "10128", "longitude": "-73.950103", "latitude": "40.779579", "street": "1714 2nd Ave", "phone": "+1-212-369-3600", "neighborhood": "Upper East Side||Yorkville"}, "p2_i130": {"name": "Terrace Fish & Chips", "zip": "10004", "longitude": "-74.01049", "latitude": "40.704044", "street": "77 Pearl St", "phone": "+1-212-809-4604", "neighborhood": "Financial District"}, "p2_i1": {"name": "The Brooklyneer", "zip": "10014", "longitude": "-74.0045657", "latitude": "40.7286219", "street": "220 W Houston St", "phone": "+1-646-692-4911", "neighborhood": "South Village"}, "p2_i183": {"name": "The Folly", "zip": "10012", "longitude": "-73.999954", "latitude": "40.727313", "street": "92 W Houston St", "phone": "+1-646-726-4740", "neighborhood": "Greenwich Village"}, "p2_i87": {"name": "The Upsider", "zip": "10022", "longitude": "-73.966781", "latitude": "40.756786", "street": "1004 2nd Ave", "phone": "+1-646-726-4760", "neighborhood": "Midtown East"}, "p2_i45": {"name": "The Watering Hole", "zip": "10003", "longitude": "-73.9874572753906", "latitude": "40.7372093200684", "street": "106 E 19th St", "phone": "+1-212-674-5783", "neighborhood": "Flatiron||Gramercy"}, "p2_i92": {"name": "Thursday Kitchen", "zip": "10009", "longitude": "-73.9838027954102", "latitude": "40.7275047302246", "street": "424 E 9th St", "phone": "+1-646-755-8088", "neighborhood": "East Village||Alphabet City"}, "p2_i125": {"name": "Till & Sprocket", "zip": "10001", "longitude": "-73.9916682628767", "latitude": "40.7478754059662", "street": "140 W 30th St", "phone": "+1-212-239-0570", "neighborhood": "Midtown West||Chelsea"}, "p2_i75": {"name": "Tommy Bahama Restaurant | Bar | Store - New York", "zip": "10176", "longitude": "-73.9792002147005", "latitude": "40.7553882217953", "street": "551 5th Ave", "phone": "+1-212-537-0960", "neighborhood": "Midtown East"}, "p2_i31": {"name": "Torishin", "zip": "10019", "longitude": "-73.9872055053711", "latitude": "40.7649574279785", "street": "362 W 53rd St", "phone": "+1-212-757-0108", "neighborhood": "Theater District||Midtown West||Hell's Kitchen"}, "p2_i99": {"name": "Totto Ramen", "zip": "10022", "longitude": "-73.9679722894107", "latitude": "40.7562184833974", "street": "248 E 52nd St", "phone": "+1-212-421-0052", "neighborhood": "Midtown East"}, "p2_i25": {"name": "Tropical Isle", "zip": "11417", "longitude": "-73.8243555337291", "latitude": "40.6861703395123", "street": "118-19 Liberty Ave", "phone": "+1-718-848-4753", "neighborhood": "Ozone Park"}, "p2_i53": {"name": "Tuck Shop", "zip": "10011", "longitude": "-74.0049148", "latitude": "40.7419634", "street": "75 9th Ave", "phone": "+1-212-255-2021", "neighborhood": "Meatpacking District||Chelsea"}, "p2_i30": {"name": "Tung Thong Thai Restaurant", "zip": "10032", "longitude": "-73.9386532729438", "latitude": "40.8414062274416", "street": "561 W 169th St", "phone": "+1-212-795-5995", "neighborhood": "Washington Heights"}, "p2_i97": {"name": "Umami Shoppu", "zip": "10011", "longitude": "-73.997436", "latitude": "40.736999", "street": "513 6th Ave", "phone": "+1-212-229-9991", "neighborhood": "West Village"}, "p2_i37": {"name": "Uncle Tommy's Pizzeria", "zip": "11367", "longitude": "-73.8204223", "latitude": "40.7198778", "street": "77-49 Vleigh Pl", "phone": "+1-718-480-6394", "neighborhood": "Flushing||Kew Gardens Hills"}, "p2_i46": {"name": "Variety Cafe", "zip": "10036", "longitude": "-73.9803848266602", "latitude": "40.7579956054688", "street": "48 W 48th St", "phone": "+1-212-302-9888", "neighborhood": "Midtown West"}, "p2_i68": {"name": "Vic's", "zip": "10012", "longitude": "-73.993278", "latitude": "40.726829", "street": "31 Great Jones St", "phone": "+1-212-253-5700", "neighborhood": "NoHo"}, "p2_i67": {"name": "Village Pizza", "zip": "10014", "longitude": "-74.0031204", "latitude": "40.7392502", "street": "65 8th Ave", "phone": "+1-212-243-4367", "neighborhood": "Meatpacking District||West Village"}, "p2_i54": {"name": "Village Taverna", "zip": "10003", "longitude": "-73.992805", "latitude": "40.733414", "street": "81 University Pl", "phone": "+1-212-982-3457", "neighborhood": "Greenwich Village"}, "p2_i198": {"name": "Wendy's", "zip": "10019", "longitude": "-73.983314", "latitude": "40.765571", "street": "938 8th Ave", "phone": "+1-212-977-4785", "neighborhood": "Midtown West||Hell's Kitchen"}, "p2_i144": {"name": "West Bank Cafe", "zip": "10036", "longitude": "-73.992970213294", "latitude": "40.7586255669594", "street": "407 W 42nd St", "phone": "+1-212-695-6909", "neighborhood": "Midtown West||Hell's Kitchen"}, "p2_i15": {"name": "Wolfgang's Steakhouse", "zip": "10036", "longitude": "-73.9896844", "latitude": "40.7561722", "street": "250 W 41st St", "phone": "+1-212-921-3720", "neighborhood": "Theater District||Midtown West"}, "p2_i195": {"name": "Wondee Siam II", "zip": "10019", "longitude": "-73.9874008", "latitude": "40.7658616", "street": "813 9th Ave", "phone": "+1-917-286-1726", "neighborhood": "Theater District||Midtown West||Hell's Kitchen"}, "p2_i29": {"name": "Y Cafe", "zip": "10009", "longitude": "-73.9795074", "latitude": "40.7278214", "street": "182 Ave B", "phone": "+1-212-777-3323", "neighborhood": "East Village||Alphabet City"}, "p2_i164": {"name": "Yefsi Estiatorio", "zip": "10075", "longitude": "-73.9509195", "latitude": "40.7710007", "street": "1481 York Ave", "phone": "+1-212-535-0293", "neighborhood": "Upper East Side||Yorkville"}, "p2_i117": {"name": "Zengo", "zip": "10017", "longitude": "-73.975456614573", "latitude": "40.749757387679", "street": "622 3rd Ave", "phone": "+1-212-808-8110", "neighborhood": "Murray Hill||Midtown East"}}